Location Name,Latitude,Longitude,Page,Section,Context Esp,Context Eng,,Categoria
el bosque,41.505032,2.109593,105-106,4,"al lado de campus, hay un camino desde Ciudad Badia hasta el aparcamiento de la facultad de Letras de la Universidad. Un hombre y su perro descubren el cuerpo de Laura","Next to campus, there is a dirt path from Ciudad Badia to the parking lot of the Facultad de Letras on the university campus.  A man and his dog finds Laura's body here",Cuerpo,Cuerpo
"la Vila Universitaria, UAB",41.500044,2.096812,150,6,Domenica Arrigo fue asesinada en su apartamento,Domenica A was killed in her apartment,Cuerpo,Cuerpo
la facultad de Filosof¡a y Letras,41.503254,2.107509,198-199,8,"Rosario Hurtado trata de encontrar a Bellpuig en su oficina, pero ‚l est  muerto","Rosario H attemps to find Bellpuig in his office, but he is found dead there",Cuerpo,Cuerpo
la facultad de Filosof¡a y Letras,41.503074,2.107820769,222-224,9,una brigada de limpieza descubre el cuerpo de Bru en el ba¤o,a cleaning crew finds Marcel's body in the bathroom,Cuerpo,Cuerpo
la Illa Diagonal,41.389654,2.135108,213-214,9,un centro comercial en que hay la tienda que provee de los animales pl sticos al asesino,"A mall that has a store that sells plastic animals (and other collectibles), may be the source of the animals used by the killer",narrator,Sospechoso
N-156 y A-7,41.895466,2.774985,245,9,los mozos de escuadra detectan la furgoneta de Iliescu,The Mozos find Iliescu's van,Iliescu,Sospechoso
Complejo Egara,41.554359,2.067889,261-263,10,Jaume Pocov¡ est  enterrogado aqu¡,Pocovi is interrogated here,Pocov¡,Sospechoso
Complejo Egara,41.553819,2.068200769,268-269,10,Pocov¡ confiesa,Pocovi confesses,Pocov¡,Sospechoso
"la Vila Universitaria, UAB",41.49993856,2.097066559,270,10,Pocov¡ tambi‚n vive aqu¡,Pocovi lives here as well,Pocov¡,Sospechoso
la casa de Ana y Pocov¡,41.500931,2.090439,270,10,"junto a la estaci¢n de Bellaterra, Ana le echara a Pocov¡",Where Ana kicks Pocovi out of,Pocov¡,Sospechoso
"la Vila Universitaria, UAB",41.499684,2.097172,271,10,Pocov¡ droga a Laura y la mata,Pocovi drugs Laura and kills her,Pocov¡,Sospechoso
el bosque,41.504672,2.109953,271,10,el loco asalta a Pocov¡ cuando busca un lugar para dejar el cuerpo de Laura,The crazy guy attacks Pocovi when he looks for a place to leave Laura's body,Pocov¡,Sospechoso
la Mutua de Sabadell,41.550011,2.105143,271,10,Pocov¡ recibe puntos de sutura,Pocovi gets stitches here,Pocov¡,Sospechoso
la comisar¡a de Cerda¤ola,41.486248,2.123817,42,2,Rosa Casasaies y Domenica Arrigo denuncian la desaparici¢n de Laura Cremona,Rosa C and Domenica A report the disappearance of Laura C,Mozos,Investigador
los estudios de TV3,41.374588,2.070663,55,2,nadie se va a pie de los estudios de televisi¢n,"According to Manuela Vazquez, noone walks to/from the TV3 television studios",Mozos,Investigador
la comisar¡a de Cerda¤ola,41.48599925,2.124159381,58,3,Manuela V zquez aparenta una enfermedad para no hablar con la prensa,Manuela V fakes an illness in order to not have to talk to the press,Mozos,Investigador
la comisar¡a de Sabadell,41.541092,2.100651,107/110,4,esta comisar¡a se encarga del caso cuando vuelve en homicidio,This police district is placed in charge of the case now that it is a homicide,Mozos,Investigador
el bosque,41.504312,2.109593,117-119,5,Rosario Hurtado es asaltada por un loco,Rosario H is attacked by a crazy guy,Mozos,Investigador
el bosque,41.504672,2.109233,127,5,el loco asalta a otro polic¡a,The crazy guy attacks another police officer,Mozos,Investigador
la comisar¡a de Sabadell,41.540372,2.100651,130,6,los polic¡as llevan al loco aqu¡,The police take the crazy guy to here,Mozos,Investigador
el hotel Claris,41.394819,2.165076,139,6,Dolors Adrover y Rosa Casasaies las visitan aqui; Josep Llu‡anes y Manuela V zquez se las entrevistan aqui,"Dolors A and Rosa C visit the police here, interviewed by Llucanes and Manuela V",Mozos,Investigador
Hotel Sehrs Campus,41.500465,2.095956,158,7,los polic¡as reunen aqui despu‚s del descubrimiento del cuerpo de Domenica,The police meet here after finding Domenica's body,Mozos,Investigador
el hotel Casa Fuster,41.397976,2.158072,186,8,un hotel cerca de donde Rosa Casasaies vive. Manuela V zquez y ella reunen aqu¡,A hotel near where Rosa C lives.  Manuela V meets her here,Mozos,Investigador
el Consulado General de Ruman¡a,41.407716,2.129848,210,9,Manuela V zquez va aqu¡ para hablar con el c¢nsul rumano,Manuela V goes here to talk to the Romanian consul,Mozos,Investigador
Complejo Egara,41.553819,2.067577231,245,9,donde el inspector Llu‡anes coordina la operaci¢n de encontrar a Iliescu,Llucanes coordinates the operation to detain Iliescu from here,Mozos,Investigador
el peaje de Cardedeu-La Roca,41.612769,2.350091,246,9,el lugar elegido para detener a Iliescu mientras va hacia Barcelona,The planned stretch of road to capture Iliescu on,Mozos,Investigador
el  rea de servicio de Montcada,41.493044,2.181911,248,9,Lluc y Ca¤izares esperan a Iliescu aqu¡,Lluc y Canizares wait for Iliescu here,Mozos,Investigador
estaci¢n de tren de Bellaterra,41.500888,2.090515,13,1,exhibe los carteles con la foto de Constantinu Iliescu,posters displayed here with Constantinu Iliescu's picture,narrator,Investigador
estaci¢n de tren de Cerda¤ola,41.497197,2.115333,13,1,exhibe los carteles con la foto de Constantinu Iliescu,posters displayed here with Constantinu Iliescu's picture,narrator,Investigador
"la Vila Universitaria, UAB",41.49942944,2.097066559,13,1,"exhibe los carteles con la foto de Constantinu Iliescu, apartamentos de los estudiantes extranjeros","posters displayed here with Constantinu Iliescu's picture, student apartments",narrator,Investigador
Vila de Gr…cia,41.408949,2.151883,13,1,exhibe los carteles con la foto de Constantinu Iliescu,posters displayed here with Constantinu Iliescu's picture,narrator,Investigador
el cine Verdi,41.404345,2.157777,13,1,exhibe los carteles con la foto de Constantinu Iliescu,posters displayed here with Constantinu Iliescu's picture,narrator,Investigador
el metro de Fontana,41.402629,2.152726,13,1,exhibe los carteles con la foto de Constantinu Iliescu,posters displayed here with Constantinu Iliescu's picture,narrator,Investigador
el metro de Lesseps,41.405741,2.150406,13,1,exhibe los carteles con la foto de Constantinu Iliescu,posters displayed here with Constantinu Iliescu's picture,narrator,Investigador
la oficina de Casasaies,41.502894,2.107509,20,1,Casasies se reune con los estudiantes sobre la desaparicion de Iliescu,Meeting of Casasaies and Bellpuig with the students,"Casasaies, Bellpuig, Laura, Bru, Domenica",Investigador
la pensi¢n La Palomera,41.379453,2.168721,27,2,"lugar de residencia de Iliescu en Barcelona, pero solamente est  aqu¡ por dos d¡as en agosto","Iliescu's residence in Barcelona, only here two days in August before moving again",Iliescu,Sospechoso
Bucarest,44.426772,26.108026,27,2,"direcci¢n permanente de Iliescu, pero Iliescu se hab¡a mudado","Iliescu's permanent address, but he has moved",Iliescu,Sospechoso
los estudios de TV3,41.374048,2.070974769,33,2,Laura Cremona es entrevistada en el telediario de la noche,Laura Cremona is interviewed on the evening news,Laura,Investigador
Vilanova i la Geltr£,41.220359,1.725156,83,4,el domicilio familiar de Marcel Bru,Family home of Marcel Bru,Bru,Sospechoso
el n£mero 66 de la Carretera de La Bordeta,41.373803,2.144705,83; 85-88,4,la direcci¢n de Marcel Bru en Barcelona; Manuela V zquez y Rosario Hurtado hacen una redada en el piso de Bru,"Marcel Bru's Barcelona address, Manuela V and Rosario H obtain a search warrant for the apartment",Bru,Sospechoso
los estudios de TV3,41.374048,2.070351231,95,4,Marcel Bru confiesa que hab¡a ido a buscar a Laura Cremona all¡,Marcel B confesses that he went to pick up Laura here,Bru,Sospechoso
la Global,41.531198,2.097682,96,4,"un club en la Zona Herm‚tica de Sabadell, Marcel Bru dice que hab¡a estado all¡ con su primo y amigos despu‚s de dejar a Laura","A nightclub in an industrial area of Sabadell, Marcel B says that he was here with his cousin and friends after dropping off Laura",Bru,Sospechoso
Hotel Sehrs Campus,41.500105,2.096316,99,4,Domenica le encuentra con el profesor Bellpuig la noche de la desaparici¢n de Laura,Domenica runs into professor Bellpuig the night of Laura's disappearance,Domenica y Bellpuig,Investigador
el Robador 23,41.379675,2.170717,101,4,"un bar en el Raval, Bru estaba all¡ con Laura y lleva a los polic¡as all¡","A bar in the Raval neighborhood, Marcel B was here with Laura and takes the police here",Bru y Laura,Sospechoso
el Kentucky,41.377693,2.174699,101,4,"un bar en el Raval, Bru estaba all¡ con Laura y lleva a los polic¡as all¡","A bar in the Raval neighborhood, Marcel B was here with Laura and takes the police here",Bru y Laura,Sospechoso
el mercado de La Boquer¡a,41.381732,2.171585,103,4,Bru hab¡a dejado el coche en el aparcamiento la noche de la desaparici¢n de Laura,Bru left his car in the parking garage the night of Laura's disappearance,Bru,Sospechoso
la comisar¡a de Cerda¤ola,41.48559675,2.124028603,109,4,Bru est  aqu¡ para ver el cuerpo de Laura,Bru is here to view Laura's body,Bru,Victima
Hospital Cl¡nico de Barcelona,41.389749,2.152221,109,4,el cuerpo de Laura es transportado al morgue aqu¡,Laura's body is transported to the morgue here,narrator,Victima
el n£mero 66 de la Carretera de La Bordeta,41.373083,2.144705,121,5,Bru y Laura est n all¡ antes de que Laura aparezca en TV3,Marcel B and Laura are here before Laura goes on TV3,Bru y Laura,Investigador
tienda de ropa infantil de la familia Bru,41.227484,1.723648,124,5,"en la calle Mayor de Vilanova, los padres hablan con la prensa aqu¡","on Mayor de Vilanova street, Marcel's parents speak to press here",Bru,Victima
"la Vila Universitaria, UAB",41.499324,2.096812,147,6,la puerta del piso 3.o 2 del edificio A hab¡a sido forzada,the door of an apartment has been broken into/left open,narrator,Sospechoso
"la Vila Universitaria, UAB",41.49942944,2.096557441,167,7,Bellpuig dice que estaba con Domenica aqui la noche del asesinato de Laura,Bellpuig says that he was with Domenica here the night of Laura's death,Domenica y Bellpuig,Sospechoso
N poles,40.855923,14.267381,184,8,la familia Arrigo es de N poles,The Arrigo family is from Naples,narrator,Victima
Vilanova i la Geltr£,41.219639,1.725156,191,8,Bru est  aqu¡ en cama con gripe despu‚s de recibir su libertad del juez,"Marcel B is here, in bed with the flu, after being released from police custody by the judge",Bru,Sospechoso
"la Vila Universitaria, UAB",41.499684,2.096452,192,8,unos testigos relatan que han visto un hombre mayor con Domenica y que sali¢ del apartamento,witnesses say that they saw an older man with Domenica here and she left her apartment with him,Domenica,Sospechoso
Nou Barris,41.440542,2.177363,253,9,Iliescu alquila un bajo aqu¡ despu‚s de decidir no vivir con Laura,Iliescu stays here after deciding not to live with Laura,Iliescu,Sospechoso
Londres,51.507797,-0.123603,253,9,"Iliescu pasa tiempo con un amigo mientras los asesinatos de Domenica, Bru y Bellpuig","This is where Iliescu was when Domenica, Bru and Bellpuig were murdered",Iliescu,Sospechoso
Aeropuerto de Gerona,41.898416,2.766312,254,9,Iliescu toma un vuelo de Gerona a Londres,Iliescu takes a fight from Gerona to london,Iliescu,Sospechoso
la Universidad Aut¢noma de Barcelona,41.50256,2.1042,11,1,,Location mentioned in prologue (book provides map),narrator,Sospechoso
la facultad de Filosof¡a y Letras,41.502714,2.107820769,11,1,,Location mentioned in prologue (book provides map),narrator,Sospechoso
el aeropuerto del Prat,41.297821,2.083262,47,2,Rosa Casasaies y Antoni Capllonc reciben a los padres de Laura Cremona,Rosa C and Antoni C greet Laura's parents,las se¤oras Cremona-Hogarth,Investigador
Mil n,45.464425,9.186577,48,2,las se¤oras Cremona-Hogarth vienen de Mil n,Ms. and Ms. Cremona-Hogarth live in Milan,las se¤oras Cremona-Hogarth,Victima
la Universidad Aut¢noma de Barcelona,41.50202,2.104511769,49,2,los padres de Laura Cremona reunen con las autoridades acad‚micas,Laura's parents meet with academic authorities,las se¤oras Cremona-Hogarth,Investigador
el restaurante Hisp…nia de Arenys de Mar,41.571221,2.532542,67,3,"los padres de Laura comen con el c¢nsul Italiano, Dante Braccalente","Laura's parents eat with the Italian consul, Dante B",las se¤oras Cremona-Hogarth,Victima
la facultad de Filosof¡a y Letras,41.502534,2.107509,71,3,una asamblea/manifestacion sobre las desapariciones de Iliescu y Cremona,An assembly/protest regarding the disappearances of Iliescu and Cremona,narrator,Victima
la comisar¡a de Cerda¤ola,41.48559675,2.123605397,77,3,"los padres de Laura estan all¡ para ver el video de la camera de seguridad de los estudios de TV3, identifican a Marcel Bru","Laura's parents are here in order to watch the security footage from outside the TV3 studios, they identify Marcel Bru",las se¤oras Cremona-Hogarth,Victima
el hotel de Bellaterra,41.491453,2.100659,111-113,5,"los padres de Laura est n instalados all¡, el c¢nsul italiano va all¡ para darles la noticia del homicidio","Laura's parents move in here, the Italian consul come here to inform them of Laura's death",las se¤oras Cremona-Hogarth,Victima
la comisar¡a de Cerda¤ola,41.48599925,2.123474619,113,5,los padres de Laura est n all¡ despu‚s de que el cuerpo de Laura fue descubierto,Laura's parents are here after Laura's body is found,las se¤oras Cremona-Hogarth,Victima
la facultad de Filosof¡a y Letras,41.502714,2.107197231,123,5,los anti-Bolonia todav¡a ocupan el edificio,the anti-Bolonia protesters still occupy this building,narrator,Victima
Hospital Cl¡nico de Barcelona,41.389029,2.152221,131,6,el c¢nsul de Italia y los padres de Laura van aqu¡ para ver el cad ver,the Italian consul and Laura's parents go here to see the body,las se¤oras Cremona-Hogarth,Victima
el hotel Claris,41.394099,2.165076,137,6,las madres de Laura se mudan aqu¡ despu‚s de la muerte de Laura,Laura's parents move here after Laura's death,las se¤oras Cremona-Hogarth,Victima
"la Vila Universitaria, UAB",41.49993856,2.096557441,152,6,las madres de Laura hab¡an recogido las pertenencias de Laura con la ayuda de Domenica,Laura's parents pick up her things here with Domenica's help,las se¤oras Cremona-Hogarth,Victima
Hotel Sehrs Campus,41.499745,2.095956,166,7,"Bellpuig y su amante, Monica, se reunen aqui. Un encuentro casual entre Bellpuig y Domenica en la cafeter¡a","Bellpuig and his current girlfriend/lover, Monica, meet here.  Bellpuig  runs into Domenica in the cafeteria of the hotel",Domenica y Bellpuig,Sospechoso
Madrid,40.419575,-3.702892,171,7,Bellpuig dice qu‚ est  aqu¡ despu‚s de la desaparici¢n de Laura,Bellpuig says that he was here after Laura's dissappearance,Bellpuig,Sospechoso
Hotel Sehrs Campus,41.500105,2.095596,175,7,Bellpuig toma caf‚ aqui antes de la hora de la reuni¢n con Domenica,Bellpuig has coffee here before the encounter with Domenica,Bellpuig,Sospechoso
la Universidad Aut¢noma de Barcelona,41.50202,2.103888231,197,8,"memorial para Laura y Domenica, Manuela V zquez y Rosario Hurtado asisten. Bellpuig tambi‚n est  aqu¡ pero sale","Memorial for Laura and Domenica, Manuela V and Rosario H attend. Bellpuig is also here but leaves early",Bellpuig,Sospechoso
el tanatorio de Les Corts,41.38382,2.121457,207,8,"el funeral de Bellpuig est  aqu¡, con algunos invitados destacados","Bellpuig's funeral is here, with some guests noted in novel",narrator,Victima
la facultad de Filosof¡a y Letras,41.503074,2.107197231,218,9,los okupas deciden retirarse porque los medios de comunicaci¢n solamente cubren los asesinatos,The squatters decide to leave because the media is only covering the murders,narrator,Victima
el aeropuerto del Prat,41.297101,2.083262,221,9,Las madres de Laura salen y los padres de Domenica llegan,Laura's parents leave and Domenica's parents arrive,las se¤oras Cremona-Hogarth,Victima
